{"type":"FeatureCollection","features":[{"type":"Feature","properties":{"Name":"The Minories","Legal Status":"Illicit Sanctuary"},"geometry":{"type":"Point","coordinates":[-0.0746,51.5115]}},{"type":"Feature","properties":{"marker-color":"#7E7E7E","marker-size":"medium","marker-symbol":"","Name":"The Clink","Legal Status":"Debtors Prison"},"geometry":{"type":"Point","coordinates":[-0.091931,51.507078]}},{"type":"Feature","properties":{"Name":"Thrale Street","Legal Status":"Illicit Sanctuary"},"geometry":{"type":"Point","coordinates":[-0.094271,51.505679]}},{"type":"Feature","properties":{"Name":"St. Giles","Legal Status":"Illicit Sanctuary"},"geometry":{"type":"Point","coordinates":[-0.127573,51.516737]}},{"type":"Feature","properties":{"Name":"Montague Close","Legal Status":"Illicit Sanctuary"},"geometry":{"type":"Point","coordinates":[-0.088907,51.50648]}},{"type":"Feature","properties":{"Name":"Salisbury Court","Legal Status":"Illicit Sanctuary"},"geometry":{"type":"Point","coordinates":[-0.106244,51.514413]}},{"type":"Feature","properties":{"Name":"Whitefriars","Legal Status":"Illicit Sanctuary"},"geometry":{"type":"Point","coordinates":[-0.10685920715332031,51.51208112458295]}},{"type":"Feature","properties":{"Name":"The Savoy","Legal Status":"Illicit Sanctuary"},"geometry":{"type":"Point","coordinates":[-0.12075,51.50971]}},{"type":"Feature","properties":{"Name":"Ram-Alley","Legal Status":"Illicit Sanctuary"},"geometry":{"type":"Point","coordinates":[-0.109249,51.514547]}},{"type":"Feature","properties":{"Name":"Mitre-Court","Legal Status":"Illicit Sanctuary"},"geometry":{"type":"Point","coordinates":[-0.094743,51.515428]}},{"type":"Feature","properties":{"Name":"Baldwins-Gardens","Legal Status":"Illicit Sanctuary"},"geometry":{"type":"Point","coordinates":[-0.110836,51.520605]}},{"type":"Feature","properties":{"Name":"Fullers Rents","Legal Status":"Illicit Sanctuary"},"geometry":{"type":"Point","coordinates":[-0.108776,51.512383]}},{"type":"Feature","properties":{"Name":"The Mint","Legal Status":"Illicit Sanctuary"},"geometry":{"type":"Point","coordinates":[-0.094099,51.504183]}},{"type":"Feature","properties":{"marker-color":"#7E7E7E","marker-size":"medium","marker-symbol":"","Name":"The Fleet Prison","Legal Status":"Debtors Prison with Associated Rules"},"geometry":{"type":"Point","coordinates":[-0.10365,51.51449]}},{"type":"Feature","properties":{"marker-color":"#7E7E7E","marker-size":"medium","marker-symbol":"","Name":"The Kings Bench","Legal Status":"Debtors Prison with Associated Rules"},"geometry":{"type":"Point","coordinates":[-0.09081,51.50153]}},{"type":"Feature","properties":{"Name":"Sargeants Inn","Legal Status":"Illicit Sanctuary"},"geometry":{"type":"Point","coordinates":[-0.11053,51.51432]}},{"type":"Feature","properties":{"marker-color":"#7E7E7E","marker-size":"medium","marker-symbol":"","Name":"Poultry Compter","Legal Status":"Debtors Prison"},"geometry":{"type":"Point","coordinates":[-0.08971989154815674,51.51364353612158]}}]}